{"type": "FeatureCollection", "features": [{"type": "Feature", "properties": {"code": "D08", "name": "Stadium-Armory", "station_idx": 1, "lat": 38.88594, "lon": -76.977485}, "geometry": {"coordinates": [-76.977485, 38.88594], "type": "Point"}}, {"type": "Feature", "properties": {"code": "E04", "name": "Columbia Heights", "station_idx": 2, "lat": 38.928672, "lon": -77.032775}, "geometry": {"coordinates": [-77.032775, 38.928672], "type": "Point"}}, {"type": "Feature", "properties": {"code": "G05", "name": "Downtown Largo", "station_idx": 3, "lat": 38.9008, "lon": -76.8449}, "geometry": {"coordinates": [-76.8449, 38.9008], "type": "Point"}}, {"type": "Feature", "properties": {"code": "A09", "name": "Bethesda", "station_idx": 4, "lat": 38.984282, "lon": -77.094431}, "geometry": {"coordinates": [-77.094431, 38.984282], "type": "Point"}}, {"type": "Feature", "properties": {"code": "A13", "name": "Twinbrook", "station_idx": 5, "lat": 39.062359, "lon": -77.121113}, "geometry": {"coordinates": [-77.121113, 39.062359], "type": "Point"}}, {"type": "Feature", "properties": {"code": "K07", "name": "Dunn Loring-Merrifield", "station_idx": 6, "lat": 38.883015, "lon": -77.228939}, "geometry": {"coordinates": [-77.228939, 38.883015], "type": "Point"}}, {"type": "Feature", "properties": {"code": "F07", "name": "Congress Heights", "station_idx": 7, "lat": 38.845334, "lon": -76.98817}, "geometry": {"coordinates": [-76.98817, 38.845334], "type": "Point"}}, {"type": "Feature", "properties": {"code": "N06", "name": "Wiehle-Reston East", "station_idx": 8, "lat": 38.947753, "lon": -77.340179}, "geometry": {"coordinates": [-77.340179, 38.947753], "type": "Point"}}, {"type": "Feature", "properties": {"code": "B08", "name": "Silver Spring", "station_idx": 9, "lat": 38.993841, "lon": -77.031321}, "geometry": {"coordinates": [-77.031321, 38.993841], "type": "Point"}}, {"type": "Feature", "properties": {"code": "C07", "name": "Pentagon", "station_idx": 10, "lat": 38.869349, "lon": -77.054013}, "geometry": {"coordinates": [-77.054013, 38.869349], "type": "Point"}}, {"type": "Feature", "properties": {"code": "D04", "name": "Federal Center SW", "station_idx": 11, "lat": 38.884958, "lon": -77.01586}, "geometry": {"coordinates": [-77.01586, 38.884958], "type": "Point"}}, {"type": "Feature", "properties": {"code": "B05", "name": "Brookland-CUA", "station_idx": 12, "lat": 38.933234, "lon": -76.994544}, "geometry": {"coordinates": [-76.994544, 38.933234], "type": "Point"}}, {"type": "Feature", "properties": {"code": "C15", "name": "Huntington", "station_idx": 13, "lat": 38.793841, "lon": -77.075301}, "geometry": {"coordinates": [-77.075301, 38.793841], "type": "Point"}}, {"type": "Feature", "properties": {"code": "G03", "name": "Addison Road-Seat Pleasant", "station_idx": 14, "lat": 38.886713, "lon": -76.893592}, "geometry": {"coordinates": [-76.893592, 38.886713], "type": "Point"}}, {"type": "Feature", "properties": {"code": "E02", "name": "Shaw-Howard U", "station_idx": 15, "lat": 38.912919, "lon": -77.022194}, "geometry": {"coordinates": [-77.022194, 38.912919], "type": "Point"}}, {"type": "Feature", "properties": {"code": "F05", "name": "Navy Yard-Ballpark", "station_idx": 16, "lat": 38.876588, "lon": -77.005086}, "geometry": {"coordinates": [-77.005086, 38.876588], "type": "Point"}}, {"type": "Feature", "properties": {"code": "A15", "name": "Shady Grove", "station_idx": 17, "lat": 39.119819, "lon": -77.164921}, "geometry": {"coordinates": [-77.164921, 39.119819], "type": "Point"}}, {"type": "Feature", "properties": {"code": "F03", "name": "L'Enfant Plaza", "station_idx": 18, "lat": 38.884775, "lon": -77.021964}, "geometry": {"coordinates": [-77.021964, 38.884775], "type": "Point"}}, {"type": "Feature", "properties": {"code": "K08", "name": "Vienna/Fairfax-GMU", "station_idx": 19, "lat": 38.877693, "lon": -77.271562}, "geometry": {"coordinates": [-77.271562, 38.877693], "type": "Point"}}, {"type": "Feature", "properties": {"code": "B04", "name": "Rhode Island Ave-Brentwood", "station_idx": 20, "lat": 38.920741, "lon": -76.995984}, "geometry": {"coordinates": [-76.995984, 38.920741], "type": "Point"}}, {"type": "Feature", "properties": {"code": "A12", "name": "North Bethesda", "station_idx": 21, "lat": 39.048043, "lon": -77.113131}, "geometry": {"coordinates": [-77.113131, 39.048043], "type": "Point"}}, {"type": "Feature", "properties": {"code": "B11", "name": "Glenmont", "station_idx": 22, "lat": 39.061713, "lon": -77.05341}, "geometry": {"coordinates": [-77.05341, 39.061713], "type": "Point"}}, {"type": "Feature", "properties": {"code": "D01", "name": "Federal Triangle", "station_idx": 23, "lat": 38.893757, "lon": -77.028218}, "geometry": {"coordinates": [-77.028218, 38.893757], "type": "Point"}}, {"type": "Feature", "properties": {"code": "F01", "name": "Gallery Pl-Chinatown", "station_idx": 24, "lat": 38.89834, "lon": -77.021851}, "geometry": {"coordinates": [-77.021851, 38.89834], "type": "Point"}}, {"type": "Feature", "properties": {"code": "A03", "name": "Dupont Circle", "station_idx": 25, "lat": 38.909499, "lon": -77.04362}, "geometry": {"coordinates": [-77.04362, 38.909499], "type": "Point"}}, {"type": "Feature", "properties": {"code": "D12", "name": "Landover", "station_idx": 26, "lat": 38.934411, "lon": -76.890988}, "geometry": {"coordinates": [-76.890988, 38.934411], "type": "Point"}}, {"type": "Feature", "properties": {"code": "G02", "name": "Capitol Heights", "station_idx": 27, "lat": 38.889757, "lon": -76.913382}, "geometry": {"coordinates": [-76.913382, 38.889757], "type": "Point"}}, {"type": "Feature", "properties": {"code": "N08", "name": "Herndon", "station_idx": 28, "lat": 38.952821, "lon": -77.385178}, "geometry": {"coordinates": [-77.385178, 38.952821], "type": "Point"}}, {"type": "Feature", "properties": {"code": "N09", "name": "Innovation Center", "station_idx": 29, "lat": 38.960758, "lon": -77.415295}, "geometry": {"coordinates": [-77.415295, 38.960758], "type": "Point"}}, {"type": "Feature", "properties": {"code": "K02", "name": "Clarendon", "station_idx": 30, "lat": 38.886373, "lon": -77.096963}, "geometry": {"coordinates": [-77.096963, 38.886373], "type": "Point"}}, {"type": "Feature", "properties": {"code": "J02", "name": "Van Dorn Street", "station_idx": 31, "lat": 38.799193, "lon": -77.129407}, "geometry": {"coordinates": [-77.129407, 38.799193], "type": "Point"}}, {"type": "Feature", "properties": {"code": "C05", "name": "Rosslyn", "station_idx": 32, "lat": 38.896595, "lon": -77.07146}, "geometry": {"coordinates": [-77.07146, 38.896595], "type": "Point"}}, {"type": "Feature", "properties": {"code": "C11", "name": "Potomac Yard", "station_idx": 33, "lat": 38.83108, "lon": -77.04644}, "geometry": {"coordinates": [-77.04644, 38.83108], "type": "Point"}}, {"type": "Feature", "properties": {"code": "C14", "name": "Eisenhower Avenue", "station_idx": 34, "lat": 38.800313, "lon": -77.071173}, "geometry": {"coordinates": [-77.071173, 38.800313], "type": "Point"}}, {"type": "Feature", "properties": {"code": "A11", "name": "Grosvenor-Strathmore", "station_idx": 35, "lat": 39.029158, "lon": -77.10415}, "geometry": {"coordinates": [-77.10415, 39.029158], "type": "Point"}}, {"type": "Feature", "properties": {"code": "A04", "name": "Woodley Park-Zoo/Adams Morgan", "station_idx": 36, "lat": 38.924999, "lon": -77.052648}, "geometry": {"coordinates": [-77.052648, 38.924999], "type": "Point"}}, {"type": "Feature", "properties": {"code": "F10", "name": "Suitland", "station_idx": 37, "lat": 38.843891, "lon": -76.932022}, "geometry": {"coordinates": [-76.932022, 38.843891], "type": "Point"}}, {"type": "Feature", "properties": {"code": "D13", "name": "New Carrollton", "station_idx": 38, "lat": 38.947674, "lon": -76.872144}, "geometry": {"coordinates": [-76.872144, 38.947674], "type": "Point"}}, {"type": "Feature", "properties": {"code": "E08", "name": "Hyattsville Crossing", "station_idx": 39, "lat": 38.965276, "lon": -76.956182}, "geometry": {"coordinates": [-76.956182, 38.965276], "type": "Point"}}, {"type": "Feature", "properties": {"code": "C08", "name": "Pentagon City", "station_idx": 40, "lat": 38.863045, "lon": -77.059507}, "geometry": {"coordinates": [-77.059507, 38.863045], "type": "Point"}}, {"type": "Feature", "properties": {"code": "F02", "name": "Archives-Navy Memorial-Penn Quarter", "station_idx": 41, "lat": 38.893893, "lon": -77.021902}, "geometry": {"coordinates": [-77.021902, 38.893893], "type": "Point"}}, {"type": "Feature", "properties": {"code": "A07", "name": "Tenleytown-AU", "station_idx": 42, "lat": 38.947808, "lon": -77.079615}, "geometry": {"coordinates": [-77.079615, 38.947808], "type": "Point"}}, {"type": "Feature", "properties": {"code": "A06", "name": "Van Ness-UDC", "station_idx": 43, "lat": 38.94362, "lon": -77.063511}, "geometry": {"coordinates": [-77.063511, 38.94362], "type": "Point"}}, {"type": "Feature", "properties": {"code": "N12", "name": "Ashburn", "station_idx": 44, "lat": 39.005283, "lon": -77.491537}, "geometry": {"coordinates": [-77.491537, 39.005283], "type": "Point"}}, {"type": "Feature", "properties": {"code": "A10", "name": "Medical Center", "station_idx": 45, "lat": 38.999947, "lon": -77.097253}, "geometry": {"coordinates": [-77.097253, 38.999947], "type": "Point"}}, {"type": "Feature", "properties": {"code": "E03", "name": "U Street/African-Amer Civil War Memorial/Cardozo", "station_idx": 46, "lat": 38.916489, "lon": -77.028938}, "geometry": {"coordinates": [-77.028938, 38.916489], "type": "Point"}}, {"type": "Feature", "properties": {"code": "E06", "name": "Fort Totten", "station_idx": 47, "lat": 38.951777, "lon": -77.002174}, "geometry": {"coordinates": [-77.002174, 38.951777], "type": "Point"}}, {"type": "Feature", "properties": {"code": "F04", "name": "Waterfront", "station_idx": 48, "lat": 38.876221, "lon": -77.017491}, "geometry": {"coordinates": [-77.017491, 38.876221], "type": "Point"}}, {"type": "Feature", "properties": {"code": "A05", "name": "Cleveland Park", "station_idx": 49, "lat": 38.934703, "lon": -77.058226}, "geometry": {"coordinates": [-77.058226, 38.934703], "type": "Point"}}, {"type": "Feature", "properties": {"code": "B02", "name": "Judiciary Square", "station_idx": 50, "lat": 38.896084, "lon": -77.016643}, "geometry": {"coordinates": [-77.016643, 38.896084], "type": "Point"}}, {"type": "Feature", "properties": {"code": "N02", "name": "Tysons", "station_idx": 51, "lat": 38.920056, "lon": -77.223314}, "geometry": {"coordinates": [-77.223314, 38.920056], "type": "Point"}}, {"type": "Feature", "properties": {"code": "E07", "name": "West Hyattsville", "station_idx": 52, "lat": 38.954931, "lon": -76.969881}, "geometry": {"coordinates": [-76.969881, 38.954931], "type": "Point"}}, {"type": "Feature", "properties": {"code": "D09", "name": "Minnesota Ave", "station_idx": 53, "lat": 38.898284, "lon": -76.948042}, "geometry": {"coordinates": [-76.948042, 38.898284], "type": "Point"}}, {"type": "Feature", "properties": {"code": "B10", "name": "Wheaton", "station_idx": 54, "lat": 39.038558, "lon": -77.051098}, "geometry": {"coordinates": [-77.051098, 39.038558], "type": "Point"}}, {"type": "Feature", "properties": {"code": "F08", "name": "Southern Avenue", "station_idx": 55, "lat": 38.840974, "lon": -76.97536}, "geometry": {"coordinates": [-76.97536, 38.840974], "type": "Point"}}, {"type": "Feature", "properties": {"code": "D07", "name": "Potomac Ave", "station_idx": 56, "lat": 38.880841, "lon": -76.985721}, "geometry": {"coordinates": [-76.985721, 38.880841], "type": "Point"}}, {"type": "Feature", "properties": {"code": "C10", "name": "Ronald Reagan Washington National Airport", "station_idx": 57, "lat": 38.852985, "lon": -77.043805}, "geometry": {"coordinates": [-77.043805, 38.852985], "type": "Point"}}, {"type": "Feature", "properties": {"code": "F06", "name": "Anacostia", "station_idx": 58, "lat": 38.862072, "lon": -76.995648}, "geometry": {"coordinates": [-76.995648, 38.862072], "type": "Point"}}, {"type": "Feature", "properties": {"code": "C02", "name": "McPherson Square", "station_idx": 59, "lat": 38.901316, "lon": -77.033652}, "geometry": {"coordinates": [-77.033652, 38.901316], "type": "Point"}}, {"type": "Feature", "properties": {"code": "D03", "name": "L'Enfant Plaza", "station_idx": 60, "lat": 38.884775, "lon": -77.021964}, "geometry": {"coordinates": [-77.021964, 38.884775], "type": "Point"}}, {"type": "Feature", "properties": {"code": "N03", "name": "Greensboro", "station_idx": 61, "lat": 38.919749, "lon": -77.235192}, "geometry": {"coordinates": [-77.235192, 38.919749], "type": "Point"}}, {"type": "Feature", "properties": {"code": "A14", "name": "Rockville", "station_idx": 62, "lat": 39.084215, "lon": -77.146424}, "geometry": {"coordinates": [-77.146424, 39.084215], "type": "Point"}}, {"type": "Feature", "properties": {"code": "B01", "name": "Gallery Pl-Chinatown", "station_idx": 63, "lat": 38.89834, "lon": -77.021851}, "geometry": {"coordinates": [-77.021851, 38.89834], "type": "Point"}}, {"type": "Feature", "properties": {"code": "C01", "name": "Metro Center", "station_idx": 64, "lat": 38.898303, "lon": -77.028099}, "geometry": {"coordinates": [-77.028099, 38.898303], "type": "Point"}}, {"type": "Feature", "properties": {"code": "C13", "name": "King St-Old Town", "station_idx": 65, "lat": 38.806474, "lon": -77.061115}, "geometry": {"coordinates": [-77.061115, 38.806474], "type": "Point"}}, {"type": "Feature", "properties": {"code": "D05", "name": "Capitol South", "station_idx": 66, "lat": 38.884968, "lon": -77.005137}, "geometry": {"coordinates": [-77.005137, 38.884968], "type": "Point"}}, {"type": "Feature", "properties": {"code": "D10", "name": "Deanwood", "station_idx": 67, "lat": 38.907734, "lon": -76.936177}, "geometry": {"coordinates": [-76.936177, 38.907734], "type": "Point"}}, {"type": "Feature", "properties": {"code": "C09", "name": "Crystal City", "station_idx": 68, "lat": 38.85779, "lon": -77.050589}, "geometry": {"coordinates": [-77.050589, 38.85779], "type": "Point"}}, {"type": "Feature", "properties": {"code": "N04", "name": "Spring Hill", "station_idx": 69, "lat": 38.929273, "lon": -77.241988}, "geometry": {"coordinates": [-77.241988, 38.929273], "type": "Point"}}, {"type": "Feature", "properties": {"code": "D06", "name": "Eastern Market", "station_idx": 70, "lat": 38.884124, "lon": -76.995334}, "geometry": {"coordinates": [-76.995334, 38.884124], "type": "Point"}}, {"type": "Feature", "properties": {"code": "G04", "name": "Morgan Boulevard", "station_idx": 71, "lat": 38.8913, "lon": -76.8682}, "geometry": {"coordinates": [-76.8682, 38.8913], "type": "Point"}}, {"type": "Feature", "properties": {"code": "C03", "name": "Farragut West", "station_idx": 72, "lat": 38.901311, "lon": -77.03981}, "geometry": {"coordinates": [-77.03981, 38.901311], "type": "Point"}}, {"type": "Feature", "properties": {"code": "A02", "name": "Farragut North", "station_idx": 73, "lat": 38.903192, "lon": -77.039766}, "geometry": {"coordinates": [-77.039766, 38.903192], "type": "Point"}}, {"type": "Feature", "properties": {"code": "N07", "name": "Reston Town Center", "station_idx": 74, "lat": 38.952768, "lon": -77.360185}, "geometry": {"coordinates": [-77.360185, 38.952768], "type": "Point"}}, {"type": "Feature", "properties": {"code": "K01", "name": "Court House", "station_idx": 75, "lat": 38.891499, "lon": -77.08391}, "geometry": {"coordinates": [-77.08391, 38.891499], "type": "Point"}}, {"type": "Feature", "properties": {"code": "N01", "name": "McLean", "station_idx": 76, "lat": 38.924478, "lon": -77.210167}, "geometry": {"coordinates": [-77.210167, 38.924478], "type": "Point"}}, {"type": "Feature", "properties": {"code": "C06", "name": "Arlington Cemetery", "station_idx": 77, "lat": 38.884574, "lon": -77.063108}, "geometry": {"coordinates": [-77.063108, 38.884574], "type": "Point"}}, {"type": "Feature", "properties": {"code": "E01", "name": "Mt Vernon Sq 7th St-Convention Center", "station_idx": 78, "lat": 38.905604, "lon": -77.022256}, "geometry": {"coordinates": [-77.022256, 38.905604], "type": "Point"}}, {"type": "Feature", "properties": {"code": "E10", "name": "Greenbelt", "station_idx": 79, "lat": 39.011036, "lon": -76.911362}, "geometry": {"coordinates": [-76.911362, 39.011036], "type": "Point"}}, {"type": "Feature", "properties": {"code": "C12", "name": "Braddock Road", "station_idx": 80, "lat": 38.814009, "lon": -77.053763}, "geometry": {"coordinates": [-77.053763, 38.814009], "type": "Point"}}, {"type": "Feature", "properties": {"code": "A01", "name": "Metro Center", "station_idx": 81, "lat": 38.898303, "lon": -77.028099}, "geometry": {"coordinates": [-77.028099, 38.898303], "type": "Point"}}, {"type": "Feature", "properties": {"code": "A08", "name": "Friendship Heights", "station_idx": 82, "lat": 38.960744, "lon": -77.085969}, "geometry": {"coordinates": [-77.085969, 38.960744], "type": "Point"}}, {"type": "Feature", "properties": {"code": "B35", "name": "NoMa-Gallaudet U", "station_idx": 83, "lat": 38.907407, "lon": -77.002961}, "geometry": {"coordinates": [-77.002961, 38.907407], "type": "Point"}}, {"type": "Feature", "properties": {"code": "N10", "name": "Washington Dulles International Airport", "station_idx": 84, "lat": 38.955784, "lon": -77.448148}, "geometry": {"coordinates": [-77.448148, 38.955784], "type": "Point"}}, {"type": "Feature", "properties": {"code": "K04", "name": "Ballston-MU", "station_idx": 85, "lat": 38.882071, "lon": -77.111845}, "geometry": {"coordinates": [-77.111845, 38.882071], "type": "Point"}}, {"type": "Feature", "properties": {"code": "B09", "name": "Forest Glen", "station_idx": 86, "lat": 39.015413, "lon": -77.042953}, "geometry": {"coordinates": [-77.042953, 39.015413], "type": "Point"}}, {"type": "Feature", "properties": {"code": "F11", "name": "Branch Ave", "station_idx": 87, "lat": 38.826995, "lon": -76.912134}, "geometry": {"coordinates": [-76.912134, 38.826995], "type": "Point"}}, {"type": "Feature", "properties": {"code": "E09", "name": "College Park-U of Md", "station_idx": 88, "lat": 38.978523, "lon": -76.928432}, "geometry": {"coordinates": [-76.928432, 38.978523], "type": "Point"}}, {"type": "Feature", "properties": {"code": "G01", "name": "Benning Road", "station_idx": 89, "lat": 38.890488, "lon": -76.938291}, "geometry": {"coordinates": [-76.938291, 38.890488], "type": "Point"}}, {"type": "Feature", "properties": {"code": "N11", "name": "Loudoun Gateway", "station_idx": 90, "lat": 38.99204, "lon": -77.460685}, "geometry": {"coordinates": [-77.460685, 38.99204], "type": "Point"}}, {"type": "Feature", "properties": {"code": "E05", "name": "Georgia Ave-Petworth", "station_idx": 91, "lat": 38.936077, "lon": -77.024728}, "geometry": {"coordinates": [-77.024728, 38.936077], "type": "Point"}}, {"type": "Feature", "properties": {"code": "K03", "name": "Virginia Square-GMU", "station_idx": 92, "lat": 38.88331, "lon": -77.104267}, "geometry": {"coordinates": [-77.104267, 38.88331], "type": "Point"}}, {"type": "Feature", "properties": {"code": "D02", "name": "Smithsonian", "station_idx": 93, "lat": 38.888022, "lon": -77.028232}, "geometry": {"coordinates": [-77.028232, 38.888022], "type": "Point"}}, {"type": "Feature", "properties": {"code": "F09", "name": "Naylor Road", "station_idx": 94, "lat": 38.851187, "lon": -76.956565}, "geometry": {"coordinates": [-76.956565, 38.851187], "type": "Point"}}, {"type": "Feature", "properties": {"code": "C04", "name": "Foggy Bottom-GWU", "station_idx": 95, "lat": 38.900599, "lon": -77.050273}, "geometry": {"coordinates": [-77.050273, 38.900599], "type": "Point"}}, {"type": "Feature", "properties": {"code": "D11", "name": "Cheverly", "station_idx": 96, "lat": 38.91652, "lon": -76.915427}, "geometry": {"coordinates": [-76.915427, 38.91652], "type": "Point"}}, {"type": "Feature", "properties": {"code": "B07", "name": "Takoma", "station_idx": 97, "lat": 38.975532, "lon": -77.017834}, "geometry": {"coordinates": [-77.017834, 38.975532], "type": "Point"}}, {"type": "Feature", "properties": {"code": "K06", "name": "West Falls Church", "station_idx": 98, "lat": 38.90067, "lon": -77.189394}, "geometry": {"coordinates": [-77.189394, 38.90067], "type": "Point"}}, {"type": "Feature", "properties": {"code": "K05", "name": "East Falls Church", "station_idx": 99, "lat": 38.885841, "lon": -77.157177}, "geometry": {"coordinates": [-77.157177, 38.885841], "type": "Point"}}, {"type": "Feature", "properties": {"code": "B03", "name": "Union Station", "station_idx": 100, "lat": 38.897723, "lon": -77.006745}, "geometry": {"coordinates": [-77.006745, 38.897723], "type": "Point"}}, {"type": "Feature", "properties": {"code": "B06", "name": "Fort Totten", "station_idx": 101, "lat": 38.951777, "lon": -77.002174}, "geometry": {"coordinates": [-77.002174, 38.951777], "type": "Point"}}, {"type": "Feature", "properties": {"code": "J03", "name": "Franconia-Springfield", "station_idx": 102, "lat": 38.766129, "lon": -77.168797}, "geometry": {"coordinates": [-77.168797, 38.766129], "type": "Point"}}]}